[
    {
        "id": "1",
        "name": "成都市一环路西一段",
        "lon": "104.038574",
        "lat": "30.657045"
    },
    {
        "id": "2",
        "name": "四川省成都市武侯区浆洗街街道一环路南四段与洗面桥巷交叉口",
        "lon": "104.047330",
        "lat": "30.638362"
    },
    {
        "id": "3",
        "name": "成都市一环路南三段",
        "lon": "104.054581",
        "lat": "30.635757"
    },
    {
        "id": "4",
        "name": "成都市一环路南三段",
        "lon": "104.055481",
        "lat": "30.635738"
    },
    {
        "id": "5",
        "name": "成都市一环路南一段",
        "lon": "104.089134",
        "lat": "30.645519"
    },
    {
        "id": "6",
        "name": "成都市青和里北段",
        "lon": "104.089355",
        "lat": "30.645842"
    },
    {
        "id": "7",
        "name": "成都市一环路东三段",
        "lon": "104.095413",
        "lat": "30.655582"
    },
    {
        "id": "8",
        "name": "成都市一环路东三段",
        "lon": "104.095757",
        "lat": "30.656019"
    },
    {
        "id": "9",
        "name": "四川省成都市成华区府青路街道前锋小区",
        "lon": "104.087566",
        "lat": "30.681726"
    },
    {
        "id": "10",
        "name": "四川省成都市成华区府青路街道一环路北四段与三友路交叉口",
        "lon": "104.087465",
        "lat": "30.681496"
    },
    {
        "id": "11",
        "name": "四川省成都市金牛区驷马桥街道一环路北四段",
        "lon": "104.082765",
        "lat": "30.683756"
    },
    {
        "id": "12",
        "name": "四川省成都市金牛区驷马桥街道一环路北四段",
        "lon": "104.082515",
        "lat": "30.683876"
    },
    {
        "id": "13",
        "name": "四川省成都市金牛区荷花池街道一环路北二段32号院",
        "lon": "104.064286",
        "lat": "30.688280"
    },
    {
        "id": "14",
        "name": "四川省成都市金牛区荷花池街道一环路北二段32号院",
        "lon": "104.066475",
        "lat": "30.688303"
    },
    {
        "id": "15",
        "name": "四川省成都市金牛区荷花池街道成都西部甲状腺医院",
        "lon": "104.062478",
        "lat": "30.688246"
    },
    {
        "id": "16",
        "name": "四川省成都市金牛区荷花池街道成都西部甲状腺医院",
        "lon": "104.059742",
        "lat": "30.688359"
    },
    {
        "id": "17",
        "name": "四川省成都市金牛区抚琴街道营门大厦",
        "lon": "104.046429",
        "lat": "30.686180"
    },
    {
        "id": "18",
        "name": "四川省成都市金牛区抚琴街道营门大厦",
        "lon": "104.043031",
        "lat": "30.685304"
    },
    {
        "id": "19",
        "name": "四川省成都市金牛区西安路街道成都市青羊区供电局",
        "lon": "104.042336",
        "lat": "30.683852"
    },
    {
        "id": "20",
        "name": "四川省成都市金牛区西安路街道成都中医药大学附属医院",
        "lon": "104.038129",
        "lat": "30.675136"
    },
    {
        "id": "21",
        "name": "四川省成都市青羊区草堂街道连心苑",
        "lon": "104.038682",
        "lat": "30.654714"
    },
    {
        "id": "22",
        "name": "四川省成都市武侯区浆洗街街道锦外中心",
        "lon": "104.039360",
        "lat": "30.642104"
    },
    {
        "id": "23",
        "name": "四川省成都市武侯区浆洗街街道一环路西段9号院",
        "lon": "104.038694",
        "lat": "30.647003"
    },
    {
        "id": "24",
        "name": "四川省成都市武侯区浆洗街街道高升大厦",
        "lon": "104.038654",
        "lat": "30.646371"
    },
    {
        "id": "25",
        "name": "成都市武侯区望江路街道九眼桥商业文化广场",
        "lon": "104.093836",
        "lat": "30.643916"
    },
    {
        "id": "26",
        "name": "成都市超洋路",
        "lon": "104.047958",
        "lat": "30.637613"
    },
    {
        "id": "27",
        "name": "成都市一环路南四段",
        "lon": "104.047112",
        "lat": "30.638140"
    },
    {
        "id": "28",
        "name": "成都市一环路南三段",
        "lon": "104.057777",
        "lat": "30.635658"
    },
    {
        "id": "29",
        "name": "成都市一环路南三段",
        "lon": "104.056648",
        "lat": "30.635706"
    },
    {
        "id": "30",
        "name": "成都市一环路南一段",
        "lon": "104.084114",
        "lat": "30.640944"
    },
    {
        "id": "31",
        "name": "成都市一环路东三段",
        "lon": "104.094543",
        "lat": "30.654083"
    },
    {
        "id": "32",
        "name": "成都市一环路南一段",
        "lon": "104.090042",
        "lat": "30.646923"
    },
    {
        "id": "33",
        "name": "成都市一环路南一段",
        "lon": "104.089706",
        "lat": "30.646492"
    },
    {
        "id": "34",
        "name": "成都市一环路东二段",
        "lon": "104.097832",
        "lat": "30.669670"
    },
    {
        "id": "35",
        "name": "成都市一环路东二段",
        "lon": "104.097282",
        "lat": "30.670172"
    },
    {
        "id": "36",
        "name": "成都市一环路东一段",
        "lon": "104.097092",
        "lat": "30.671423"
    },
    {
        "id": "37",
        "name": "四川省成都市金牛区驷马桥街道银海中心",
        "lon": "104.084945",
        "lat": "30.682636"
    },
    {
        "id": "38",
        "name": "四川省成都市金牛区驷马桥街道一环路北四段与三友路交叉口",
        "lon": "104.086595",
        "lat": "30.681886"
    },
    {
        "id": "39",
        "name": "四川省成都市成华区府青路街道一环路北四段与三友路交叉口",
        "lon": "104.087195",
        "lat": "30.681596"
    },
    {
        "id": "40",
        "name": "四川省成都市金牛区驷马桥街道李家沱",
        "lon": "104.081955",
        "lat": "30.684116"
    },
    {
        "id": "41",
        "name": "成都市一环路东一段",
        "lon": "104.096695",
        "lat": "30.671970"
    },
    {
        "id": "42",
        "name": "四川省成都市成华区猛追湾街道一环路东二段与猛追湾横街交叉口",
        "lon": "104.096457",
        "lat": "30.672697"
    },
    {
        "id": "43",
        "name": "四川省成都市金牛区荷花池街道成都西部甲状腺医院",
        "lon": "104.061891",
        "lat": "30.688566"
    },
    {
        "id": "44",
        "name": "四川省成都市金牛区荷花池街道炎华置信花千集",
        "lon": "104.063846",
        "lat": "30.688394"
    },
    {
        "id": "45",
        "name": "四川省成都市金牛区荷花池街道炎华置信花千集",
        "lon": "104.065795",
        "lat": "30.688631"
    },
    {
        "id": "46",
        "name": "四川省成都市金牛区荷花池街道成都西部甲状腺医院",
        "lon": "104.058429",
        "lat": "30.688365"
    },
    {
        "id": "47",
        "name": "四川省成都市金牛区西安路街道贝多小屋",
        "lon": "104.058718",
        "lat": "30.688283"
    },
    {
        "id": "48",
        "name": "四川省成都市金牛区西安路街道贝多小屋",
        "lon": "104.057707",
        "lat": "30.688252"
    },
    {
        "id": "49",
        "name": "四川省成都市金牛区西安路街道环球广场(F环路北一段)",
        "lon": "104.045638",
        "lat": "30.685930"
    },
    {
        "id": "50",
        "name": "四川省成都市金牛区西安路街道环球广场(一环路北一段)",
        "lon": "104.044180",
        "lat": "30.685932"
    },
    {
        "id": "51",
        "name": "成都市金牛区西安路街道岚庭家居总部(成都)",
        "lon": "104.052052",
        "lat": "30.687321"
    },
    {
        "id": "52",
        "name": "四川省成都市金牛区西安路街道成都中医药大学附属医院",
        "lon": "104.038129",
        "lat": "30.673483"
    },
    {
        "id": "53",
        "name": "四川省成都市金牛区西安路街道成都中医药大学附属医院",
        "lon": "104.038107",
        "lat": "30.672771"
    },
    {
        "id": "54",
        "name": "四川省成都市金牛区西安路街道成都中医药大学附属医院",
        "lon": "104.038316",
        "lat": "30.670535"
    },
    {
        "id": "55",
        "name": "四川省成都市武侯区浆洗街街道一环路西一段9号院",
        "lon": "104.038605",
        "lat": "30.648399"
    },
    {
        "id": "56",
        "name": "四川省成都市武侯区浆洗街街道一环路西段9号院",
        "lon": "104.038903",
        "lat": "30.648915"
    },
    {
        "id": "57",
        "name": "四川省成都市武侯区浆洗街街道一环路西段9号院",
        "lon": "104.039000",
        "lat": "30.650175"
    },
    {
        "id": "58",
        "name": "成都市一环路南四段",
        "lon": "104.048157",
        "lat": "30.637787"
    },
    {
        "id": "59",
        "name": "成都市一环路南四段",
        "lon": "104.049004",
        "lat": "30.637239"
    },
    {
        "id": "60",
        "name": "成都市一环路南一段",
        "lon": "104.083527",
        "lat": "30.640648"
    },
    {
        "id": "61",
        "name": "成都市一环路南一段",
        "lon": "104.089729",
        "lat": "30.646130"
    },
    {
        "id": "62",
        "name": "成都市一环路东三段",
        "lon": "104.095970",
        "lat": "30.656019"
    },
    {
        "id": "63",
        "name": "成都市一环路东三段",
        "lon": "104.095734",
        "lat": "30.655561"
    },
    {
        "id": "64",
        "name": "成都市一环路东一段",
        "lon": "104.096695",
        "lat": "30.671970"
    },
    {
        "id": "65",
        "name": "四川省成都市成华区猛追湾街道一环路东二段与猛追湾横街交叉口",
        "lon": "104.096457",
        "lat": "30.672697"
    },
    {
        "id": "66",
        "name": "四川省成都市金牛区驷马桥街道一环路北四段社区",
        "lon": "104.084445",
        "lat": "30.682906"
    },
    {
        "id": "67",
        "name": "四川省成都市金牛区驷马桥街道一环路北四段与恒德路交叉口",
        "lon": "104.083885",
        "lat": "30.683156"
    },
    {
        "id": "68",
        "name": "成都市一环路南三段",
        "lon": "04.0566481",
        "lat": "30.635706"
    },
    {
        "id": "69",
        "name": "成都市一环路东二段",
        "lon": "104.097282",
        "lat": "30.670172"
    },
    {
        "id": "70",
        "name": "四川省成都市金牛区荷花池街道成都西部甲状腺医院",
        "lon": "104.062995",
        "lat": "30.688521"
    },
    {
        "id": "71",
        "name": "四川省成都市金牛区西安路街道贝多小屋",
        "lon": "104.048651",
        "lat": "30.686474"
    },
    {
        "id": "72",
        "name": "四川省成都市金牛区西安路街道贝多小屋",
        "lon": "104.049354",
        "lat": "30.686741"
    },
    {
        "id": "73",
        "name": "四川省成都市金牛区西安路街道成都市青羊区供电局",
        "lon": "104.044285",
        "lat": "30.685619"
    },
    {
        "id": "74",
        "name": "四川省成都市金牛区西安路街道成都市青羊区供电局",
        "lon": "104.043619",
        "lat": "30.685314"
    },
    {
        "id": "75",
        "name": "四川省成都市青羊区草堂街道连心苑",
        "lon": "104.038691",
        "lat": "30.656879"
    },
    {
        "id": "76",
        "name": "四川省成都市青羊区草堂街道成都中医药大学附属医院",
        "lon": "104.038297",
        "lat": "30.670366"
    },
    {
        "id": "77",
        "name": "四川省成都市武侯区浆洗街街道一环路西段9号院",
        "lon": "104.038941",
        "lat": "30.648390"
    },
    {
        "id": "78",
        "name": "成都市成华区万年场街道万象城",
        "lon": "104.123525",
        "lat": "30.655268"
    },
    {
        "id": "79",
        "name": "成都市成华区万年场街道新希望锦麟壹品",
        "lon": "104.136291",
        "lat": "30.652838"
    },
    {
        "id": "80",
        "name": "成都市成华区保和街道东升花园",
        "lon": "104.150004",
        "lat": "30.655849"
    },
    {
        "id": "81",
        "name": "成都市成华区保和街道中国电建集团四川工程有限公司",
        "lon": "104.149739",
        "lat": "30.65793"
    },
    {
        "id": "82",
        "name": "成都市成华区万年场街道成华区宪法主题街区",
        "lon": "104.132927",
        "lat": "30.65479"
    },
    {
        "id": "83",
        "name": "成都市成华区万年场街道双庆路47号院",
        "lon": "104.128537",
        "lat": "30.656853"
    },
    {
        "id": "84",
        "name": "成都市成华区万年场街道千居朝阳",
        "lon": "104.131056",
        "lat": "30.654565"
    },
    {
        "id": "85",
        "name": "成都市成华区万年场街道成华区宪法主题街区",
        "lon": "104.127773",
        "lat": "30.649835"
    },
    {
        "id": "86",
        "name": "成都市成华区万年场街道成都交投新华加油站",
        "lon": "104.127319",
        "lat": "30.649439"
    },
    {
        "id": "87",
        "name": "成都市成华区万年场街道成华区宪法主题街区",
        "lon": "104.131953",
        "lat": "30.655278"
    },
    {
        "id": "88",
        "name": "成都市成华区二仙桥街道圣灯公园",
        "lon": "104.153057",
        "lat": "30.691382"
    },
    {
        "id": "89",
        "name": "成都市成华区二仙桥街道龙光世纪中心",
        "lon": "104.151656",
        "lat": "30.68852"
    },
    {
        "id": "90",
        "name": "成都市成华区跳祗河街道招商中央华城",
        "lon": "104.139268",
        "lat": "30.678365"
    },
    {
        "id": "91",
        "name": "成都市成华区跳蹬河街道招商中央华城",
        "lon": "104.143041",
        "lat": "30.678691"
    },
    {
        "id": "92",
        "name": "成都市成华区跳蹬河街道中迪创世纪广场B区",
        "lon": "104.121562",
        "lat": "30.669753"
    },
    {
        "id": "93",
        "name": "成都市成华区双桥子街道中迪创世纪广场A区",
        "lon": "104.120839",
        "lat": "30.669621"
    },
    {
        "id": "94",
        "name": "成都市成华区双桥子街道中迪创世纪广场A区",
        "lon": "104.120884",
        "lat": "30.668732"
    },
    {
        "id": "95",
        "name": "成都市成华区跳祗河街道招商中央华城",
        "lon": "104.139232",
        "lat": "30.67892"
    },
    {
        "id": "96",
        "name": "成都市成华区二仙桥街道中国铁建186MALL",
        "lon": "104.149684",
        "lat": "30.68781"
    },
    {
        "id": "97",
        "name": "成都市成华区二仙桥街道十里翠苑",
        "lon": "104.149343",
        "lat": "30.687686"
    },
    {
        "id": "98",
        "name": "成都市成华区二仙桥街道中国铁建186MALL",
        "lon": "104.148125",
        "lat": "30.68635"
    },
    {
        "id": "99",
        "name": "成都市成华区跳祗河街道杉板桥路",
        "lon": "104.140571",
        "lat": "30.678648"
    },
    {
        "id": "100",
        "name": "成都市成华区跳蹬河街道杉板桥路",
        "lon": "104.138626",
        "lat": "30.676326"
    },
    {
        "id": "101",
        "name": "成都市成华区跳祗河街道招商中央华城",
        "lon": "104.140077",
        "lat": "30.677293"
    },
    {
        "id": "102",
        "name": "成都市成华区双桥子街道中迪创世纪广场A区",
        "lon": "104.121935",
        "lat": "30.668887"
    },
    {
        "id": "103",
        "name": "成都市成华区双桥子街道中迪创世纪广场A区",
        "lon": "104.120359",
        "lat": "30.668441"
    },
    {
        "id": "104",
        "name": "成都市成华区跳祗河街道万科天荟",
        "lon": "104.134166",
        "lat": "30.683408"
    },
    {
        "id": "105",
        "name": "成都市成华区二仙桥街道成都理工大学二仙桥校区",
        "lon": "104.134166",
        "lat": "30.683408"
    },
    {
        "id": "106",
        "name": "成都市成华区二仙桥街道中国铁建186MALL",
        "lon": "104.132459",
        "lat": "30.686366"
    },
    {
        "id": "107",
        "name": "成都市成华区二仙桥街道中环路二仙桥东路段",
        "lon": "104.133955",
        "lat": "30.686187"
    },
    {
        "id": "108",
        "name": "成都市成华区跳祗河街道杉板桥路",
        "lon": "104.123753",
        "lat": "30.669521"
    },
    {
        "id": "109",
        "name": "成都市成华区跳祗河街道杉板桥路",
        "lon": "104.12634",
        "lat": "30.671008"
    },
    {
        "id": "110",
        "name": "成都市成华区跳蹬河街道万科天荟",
        "lon": "104.132928",
        "lat": "30.674577"
    },
    {
        "id": "111",
        "name": "成都市成华区跳祗河街道招商中央华城",
        "lon": "104.141825",
        "lat": "30.678223"
    },
    {
        "id": "112",
        "name": "成都市金牛区五块石街道中际汇菁广场",
        "lon": "104.066952",
        "lat": "30.719115"
    },
    {
        "id": "113",
        "name": "成都市金牛区沙河源街道新城德商·蓉御天骄",
        "lon": "104.066952",
        "lat": "30.719115"
    },
    {
        "id": "114",
        "name": "成都市金牛区沙河源街道大彤集老火锅",
        "lon": "104.071574",
        "lat": "30.710753"
    },
    {
        "id": "115",
        "name": "成都市金牛区五块石街道五块石商贸食品批发大商城场",
        "lon": "104.070132",
        "lat": "30.711622"
    },
    {
        "id": "116",
        "name": "成都市金牛区五块石街道蓉北商贸大道一段21号院",
        "lon": "104.072746",
        "lat": "30.710598"
    },
    {
        "id": "117",
        "name": "成都市金牛区沙河源街道锦客国际酒店",
        "lon": "104.065412",
        "lat": "30.720214"
    },
    {
        "id": "118",
        "name": "成都市金牛区五块石街道-7天酒店(成都北城天街五块石地铁站店)",
        "lon": "104.070172",
        "lat": "30.71437"
    },
    {
        "id": "119",
        "name": "成都市金牛区沙河源街道大彤集老火锅",
        "lon": "104.059852",
        "lat": "30.726963"
    },
    {
        "id": "120",
        "name": "成都市金牛区天回镇街道凤凰山体育公园",
        "lon": "104.088691",
        "lat": "30.777175"
    },
    {
        "id": "121",
        "name": "成都市金牛区天回镇街道凤凰山体育公园",
        "lon": "104.085372",
        "lat": "30.777291"
    },
    {
        "id": "122",
        "name": "成都市金牛区天回镇街道凤凰山体育公园",
        "lon": "104.087308",
        "lat": "30.773417"
    },
    {
        "id": "123",
        "name": "成都市金牛区天回镇街道凤凰山体育公园",
        "lon": "104.086468",
        "lat": "30.771594"
    },
    {
        "id": "124",
        "name": "成都市金牛区天回镇街道凤凰山体育公园",
        "lon": "104.085259",
        "lat": "30.770601"
    },
    {
        "id": "125",
        "name": "成都市金牛区天回镇街道凤凰山体育公园",
        "lon": "104.083669",
        "lat": "30.77051"
    },
    {
        "id": "126",
        "name": "成都市金牛区天回镇街道凤凰山体育公园",
        "lon": "104.083121",
        "lat": "30.770525"
    },
    {
        "id": "127",
        "name": "诚都市锦江区三圣街道四川大学华西第二医院锦江院区",
        "lon": "104.154396",
        "lat": "30.590062"
    },
    {
        "id": "128",
        "name": "成都市锦江区三圣街道四川大学华西第二医院锦江院区",
        "lon": "104.153035",
        "lat": "30.590357"
    },
    {
        "id": "129",
        "name": "成都市青羊区草市街街道时代印象(灶君庙街)",
        "lon": "104.082464",
        "lat": "30.676808"
    }
]